stop_id,stop_code,stop_name,stop_desc,stop_lat,stop_lon,zone_id,stop_url,location_type,parent_station,stop_timezone,wheelchair_boarding,platform_code
1 1,,赤羽根,,34.4223049,133.1974299,1 1,,0,,,,
1 2,,赤羽根,,34.4219667,133.197051,1 2,,0,,,,
10 1,,合同庁舎入口,,34.3981897,133.1697874,10 1,,0,,,,
10 10,,合同庁舎入口,,34.3980609,133.1698366,10 10,,0,,,,
10 2,,合同庁舎入口,,34.3980622,133.1698442,10 2,,0,,,,
100 1,,古島整形外科前,,34.4327334,133.2366972,100 1,,0,,,,
100 2,,古島整形外科前,,34.4327037,133.2368966,100 2,,0,,,,
101 1,,尾道クリニック前,,34.4004537,133.1781782,101 1,,0,,,,
101 2,,尾道クリニック前,,34.400097,133.1774004,101 2,,0,,,,
102 1,,込原,,34.3697485,133.2173581,102 1,,0,,,,
103 1,,西国寺裏参道,,34.4173821,133.2042179,103 1,,0,,,,
104 1,,西国寺下,,34.4122857,133.2046772,104 1,,0,,,,
104 2,,西国寺下,,34.4120483,133.2044339,104 2,,0,,,,
105 1,,DCM尾道店前,,34.406914,133.1903015,105 1,,0,,,,
105 2,,DCM尾道店前,,34.4075398,133.1902556,105 2,,0,,,,
106 1,,三美園,,34.4354334,133.1969242,106 1,,0,,,,
106 10,,三美園,,34.4354345,133.1969242,106 10,,0,,,,
107 1,,三美園口,,34.4441234,133.194273,107 1,,0,,,,
107 2,,三美園口,,34.4442295,133.1946768,107 2,,0,,,,
109 1,,地蔵院下,,34.3884376,133.1983571,109 1,,0,,,,
109 2,,地蔵院下,,34.3885881,133.1981902,109 2,,0,,,,
11 1,,今宮,,34.4401858,133.2317548,11 1,,0,,,,
11 2,,今宮,,34.4405346,133.2321696,11 2,,0,,,,
111 1,,市民病院,,34.4214081,133.2141233,111 1,,0,,,,
111 10,,市民病院,,34.4214081,133.2141294,111 10,,0,,,,
112 1,,市役所前,,34.409597,133.205719,112 1,,0,,,,
112 2,,市役所前,,34.4093332,133.2054278,112 2,,0,,,,
113 1,,高須車庫,,34.4265288,133.2369302,113 1,,0,,,,
113 10,,高須車庫,,34.4265288,133.2369235,113 10,,0,,,,
114 1,,商工会議所前,,34.4084654,133.2029734,114 1,,0,,,,
114 2,,商工会議所前,,34.4082097,133.2028207,114 2,,0,,,,
115 1,,正徳橋,,34.3978787,133.1679044,115 1,,0,,,,
115 2,,正徳橋,,34.3977371,133.1676417,115 2,,0,,,,
116 1,,浄土寺下,,34.411381,133.2101007,116 1,,0,,,,1
116 2,,浄土寺下,,34.4111838,133.2101846,116 2,,0,,,,2
116 3,,浄土寺下,,34.4108498,133.209895,116 3,,0,,,,3
116 4,,浄土寺下,,34.4107736,133.2101705,116 4,,0,,,,4
117 1,,如水館前,,34.4384342,133.1408645,117 1,,0,,,,
117 10,,如水館前,,34.4384265,133.1408771,117 10,,0,,,,
118 1,,白方,,34.3893647,133.182852,118 1,,0,,,,
119 1,,白江,,34.4570416,133.1859611,119 1,,0,,,,
119 2,,白江,,34.4563249,133.1868285,119 2,,0,,,,
12 1,,今免,,34.4230876,133.2279183,12 1,,0,,,,
12 2,,今免,,34.4215016,133.2284034,12 2,,0,,,,
120 1,,新尾道駅①番,,34.42989586,133.1906443,120 1,,0,,,,1
120 10,,新尾道駅,,34.42984586,133.1903277,120 10,,0,,,,
120 2,,新尾道駅②番,,34.42972921,133.1908943,120 2,,0,,,,2
120 3,,新尾道駅③番,,34.42944591,133.1908276,120 3,,0,,,,3
121 1,,亀川局前,,34.4300481,133.1911773,121 1,,0,,,,
121 2,,亀川局前,,34.4298501,133.1913819,121 2,,0,,,,
122 1,,新開,,34.4023924,133.2292516,122 1,,0,,,,
123 1,,神社前,,34.4526204,133.1697098,123 1,,0,,,,
124 1,,新高山一丁目,,34.4165606,133.2188628,124 1,,0,,,,
124 2,,新高山一丁目,,34.4166344,133.2189588,124 2,,0,,,,
125 1,,新高山市営住宅前,,34.4215067,133.2164492,125 1,,0,,,,1
125 2,,新高山市営住宅前,,34.4211333,133.2171741,125 2,,0,,,,2
125 3,,新高山市営住宅前,,34.4221477,133.21672,125 3,,0,,,,3
126 1,,新高山二丁目,,34.4189611,133.2176679,126 1,,0,,,,
126 2,,新高山二丁目,,34.4195848,133.2174309,126 2,,0,,,,
127 1,,尾道国際ホテル前,,34.4010692,133.1804744,127 1,,0,,,,
127 2,,尾道国際ホテル前,,34.4007572,133.179878,127 2,,0,,,,
128 1,,久山田水源地,,34.4262808,133.1648744,128 1,,0,,,,
13 1,,岩子島,,34.3847534,133.1692251,13 1,,0,,,,
130 1,,千光寺公園,,34.4114165,133.1954053,130 1,,0,,,,
130 2,,千光寺公園,,34.4116444,133.1949942,130 2,,0,,,,
131 1,,仙入峠,,34.4393322,133.1912729,131 1,,0,,,,
131 2,,仙入峠,,34.4397393,133.191532,131 2,,0,,,,
132 1,,大学前,,34.3673417,133.2163019,132 1,,0,,,,
133 1,,大通寺前,,34.44752672,133.1573962,133 1,,0,,,,
135 1,,高須新涯,,34.4298497,133.2321303,135 1,,0,,,,
135 2,,高須新涯,,34.4295767,133.2322834,135 2,,0,,,,
136 1,,高須農協前,,34.4358335,133.2304382,136 1,,0,,,,
136 2,,高須農協前,,34.4348604,133.2303026,136 2,,0,,,,
137 1,,高見山登山口,,34.3791795,133.1947814,137 1,,0,,,,
137 2,,高見山登山口,,34.3793048,133.1946908,137 2,,0,,,,
138 1,,高諸神社,,34.4476921,133.2443577,138 1,,0,,,,
138 2,,高諸神社,,34.4475433,133.2455672,138 2,,0,,,,
139 1,,田尻,,34.3966567,133.2005913,139 1,,0,,,,
139 2,,田尻,,34.3968584,133.2007895,139 2,,0,,,,
14 1,,岩子島渡,,34.3841987,133.1729506,14 1,,0,,,,
140 1,,立花農協前,,34.3603513,133.2018034,140 1,,0,,,,
141 1,,立石,,34.3947599,133.207663,141 1,,0,,,,
142 1,,ベイタウン中央,,34.4191698,133.2346102,142 1,,0,,,,
142 2,,ベイタウン中央,,34.41978105,133.2350577,142 2,,0,,,,
145 1,,堤,,34.3965941,133.2068744,145 1,,0,,,,
147 1,,天満町,,34.40433191,133.1899955,147 1,,0,,,,
147 2,,天満町,,34.40434859,133.1904455,147 2,,0,,,,
148 1,,天理教前,,34.45297795,133.2610707,148 1,,0,,,,
15 1,,因島北インター入口,,34.33815508,133.1568513,15 1,,0,,,,
15 2,,因島北インター入口,,34.33830506,133.156718,15 2,,0,,,,
150 1,,東西橋,,34.39853278,133.2043613,150 1,,0,,,,
150 2,,東西橋,,34.39861611,133.2041613,150 2,,0,,,,
151 1,,徳島,,34.44194569,133.2549217,151 1,,0,,,,
151 2,,徳島,,34.44209567,133.2546884,151 2,,0,,,,
152 1,,鳴滝登山口,,34.39536569,133.1605984,152 1,,0,,,,
152 10,,鳴滝登山口,,34.39536569,133.160615,152 10,,0,,,,
153 1,,長江一丁目,,34.41348111,133.2002443,153 1,,0,,,,
153 2,,長江一丁目,,34.41336446,133.2003776,153 2,,0,,,,
154 1,,長江口,,34.41024815,133.2018609,154 1,,0,,,,1
154 10,,長江口,,34.41024815,133.2018443,154 10,,0,,,,
154 2,,長江口,,34.4111814,133.2027108,154 2,,0,,,,2（国道2号線上）
154 3,,長江口,,34.4110814,133.2018776,154 3,,0,,,,3
154 4,,長江口,,34.4110464,133.202031,154 4,,0,,,,4（県道363号上）
156 1,,尾道長江郵便局前（旧長江小学校下),,34.41446433,133.1996276,156 1,,0,,,,
156 2,,尾道長江郵便局前（旧長江小学校下),,34.4146333,133.1996491,156 2,,0,,,,
157 1,,みなと小学校下（旧長江中学校前),,34.41904713,133.1970443,157 1,,0,,,,
157 2,,みなと小学校下（旧長江中学校前),,34.41916378,133.1970276,157 2,,0,,,,
158 1,,長江二丁目,,34.41683072,133.1983443,158 1,,0,,,,
158 2,,長江二丁目,,34.4167474,133.1985109,158 2,,0,,,,
159 1,,中越,,34.42278011,133.1999772,159 1,,0,,,,
159 2,,中越,,34.42264679,133.1998939,159 2,,0,,,,
16 1,,因島大橋,,34.3515872,133.169733,16 1,,0,,,,
16 2,,因島大橋,,34.35302039,133.1704995,16 2,,0,,,,
160 1,,中州,,34.373635,133.1788812,160 1,,0,,,,
161 1,,なかた美術館前,,34.40974796,133.1874455,161 1,,0,,,,
161 2,,なかた美術館前,,34.40941466,133.1876122,161 2,,0,,,,
162 1,,中富浜,,34.39469967,133.1935957,162 1,,0,,,,
163 1,,中野（如水館線),,34.44681012,133.156513,163 1,,0,,,,
164 1,,西御所,,34.40376532,133.1910121,164 1,,0,,,,
164 2,,西御所,,34.40346535,133.1904122,164 2,,0,,,,
165 1,,西富浜,,34.39354973,133.1896627,165 1,,0,,,,
166 1,,きららラポール桜並木前,,34.41611393,133.1867953,166 1,,0,,,,
166 2,,きららラポール桜並木前,,34.41604727,133.1869119,166 2,,0,,,,
167 1,,西藤小学校入口（旧 西藤町農協前),,34.45357719,133.2210573,167 1,,0,,,,
168 1,,二番潟,,34.4000827,133.2089941,168 1,,0,,,,
168 2,,二番潟,,34.39991605,133.2087442,168 2,,0,,,,
169 1,,田辺クリニック前,,34.39959882,133.174947,169 1,,0,,,,
169 2,,田辺クリニック前,,34.39941551,133.1748803,169 2,,0,,,,
17 10,,因島総合支所前,,34.29497659,133.1697023,17 10,,0,,,,
17 2,,因島総合支所前,,34.29497659,133.1697023,17 2,,0,,,,
170 1,,則末,,34.41718051,133.1885284,170 1,,0,,,,
170 2,,則末,,34.41793043,133.188595,170 2,,0,,,,
171 1,,バイパス東口,,34.43196298,133.2292743,171 1,,0,,,,
171 10,,バイパス東口,,34.43196298,133.2292743,171 10,,0,,,,
171 2,,バイパス東口,,34.43194631,133.2294243,171 2,,0,,,,
172 1,,はきもの資料館前,,34.4513448,133.2612374,172 1,,0,,,,
172 2,,はきもの資料館前,,34.45069486,133.2611542,172 2,,0,,,,
173 1,,畠岡,,34.39633229,133.1628148,173 1,,0,,,,
173 2,,畠岡,,34.39611564,133.1623815,173 2,,0,,,,
174 1,,馬場の鼻,,34.39794965,133.2123773,174 1,,0,,,,
174 2,,馬場の鼻,,34.397833,133.2121607,174 2,,0,,,,
176 10,,土生港前,,34.2844112,133.178052,176 10,,0,,,,
176 2,,土生港前,,34.2844112,133.178052,176 2,,0,,,,
178 1,,番所,,34.4243801,133.209043,178 1,,0,,,,
178 2,,番所,,34.42444676,133.209193,178 2,,0,,,,
179 1,,東尾道駅,,34.43514605,133.2335738,179 1,,0,,,,
179 10,,東尾道駅,,34.43514605,133.2335738,179 10,,0,,,,
18 1,,因島車庫前,,34.32390646,133.1488693,18 1,,0,,,,
18 2,,因島車庫前,,34.32387313,133.148586,18 2,,0,,,,
180 1,,ベイタウン入口,,34.419631,133.2313581,180 1,,0,,,,
180 2,,ベイタウン入口,,34.4193778,133.231491,180 2,,0,,,,
181 1,,東高前,,34.4139828,133.2064868,181 1,,0,,,,
182 1,,原田内科前,,34.4371233,133.2366288,182 1,,0,,,,
182 2,,原田内科前,,34.437158,133.2364418,182 2,,0,,,,
183 1,,尾道学園前,,34.3962797,133.1994239,183 1,,0,,,,
183 2,,尾道学園前,,34.395815,133.1973456,183 2,,0,,,,
184 1,,干汐,,34.372546,133.217243,184 1,,0,,,,
185 1,,干汐口,,34.3746332,133.217335,185 1,,0,,,,
186 1,,干汐新開,,34.3781979,133.2153298,186 1,,0,,,,
187 1,,日比小前,,34.4072964,133.1872539,187 1,,0,,,,
187 2,,日比小前,,34.4063604,133.187294,187 2,,0,,,,
189 10,,びんご運動公園,,34.4344969,133.1745231,189 10,,0,,,,
19 1,,栗原小学校前（旧うすい橋),,34.4226365,133.188563,19 1,,0,,,,
19 2,,栗原小学校前（旧うすい橋),,34.422925,133.1887133,19 2,,0,,,,
190 1,,深下組,,34.44197716,133.1485472,190 1,,0,,,,
191 1,,福祉センター前,,34.4209633,133.1860227,191 1,,0,,,,
191 2,,福祉センター前,,34.4200846,133.1863188,191 2,,0,,,,
192 1,,ふくしむら,,34.4216177,133.2102627,192 1,,0,,,,
192 2,,ふくしむら,,34.4216989,133.2103865,192 2,,0,,,,
193 1,,フジグラン前,,34.425144,133.2378328,193 1,,0,,,,
193 2,,フジグラン前,,34.4253604,133.2380189,193 2,,0,,,,
194 1,,芙美子像前,,34.4059535,133.1954959,194 1,,0,,,,
194 2,,芙美子像前,,34.4065464,133.1971432,194 2,,0,,,,
195 1,,プレス工業前,,34.4282187,133.2031838,195 1,,0,,,,1
195 2,,プレス工業前,,34.4282436,133.2033056,195 2,,0,,,,2
195 3,,プレス工業前,,34.4278486,133.2042152,195 3,,0,,,,3
195 4,,プレス工業前,,34.4279069,133.2043843,195 4,,0,,,,4
196 1,,防地口,,34.4126819,133.2064792,196 1,,0,,,,1
196 10,,防地口,,34.4126824,133.2064725,196 10,,0,,,,
196 2,,防地口,,34.4125119,133.2059293,196 2,,0,,,,2
196 3,,防地口,,34.4118664,133.2071132,196 3,,0,,,,3
196 4,,防地口,,34.4119228,133.2072707,196 4,,0,,,,4
197 1,,ボートレースチケットショップ尾道,,34.4265416,133.2148591,197 1,,0,,,,
198 1,,尾道インター入口,,34.4534589,133.1794433,198 1,,0,,,,
198 2,,尾道インター入口,,34.4543191,133.1805356,198 2,,0,,,,
199 1,,槙ヶ峰,,34.4161262,133.1959683,199 1,,0,,,,
2 1,,阿草,,34.4313014,133.2231511,2 1,,0,,,,
2 2,,阿草,,34.4313773,133.2235425,2 2,,0,,,,
20 1,,おのみち海辺の美術館前,,34.4060901,133.1980364,20 1,,0,,,,
20 2,,おのみち海辺の美術館前,,34.4058019,133.1975756,20 2,,0,,,,
201 1,,松永,,34.4520002,133.2558114,201 1,,0,,,,
202 1,,松永駅前,,34.4531833,133.2581359,202 1,,0,,,,
202 2,,松永駅前,,34.4525663,133.2571574,202 2,,0,,,,
203 1,,松永駅南口,,34.4504486,133.2588586,203 1,,0,,,,
203 10,,松永駅南口,,34.4504464,133.2588505,203 10,,0,,,,
204 1,,松永スポーツセンター前,,34.4475017,133.2594395,204 1,,0,,,,
204 2,,松永スポーツセンター前,,34.4473298,133.2593107,204 2,,0,,,,
205 1,,松永中学校前,,34.4457442,133.2466883,205 1,,0,,,,
205 2,,松永中学校前,,34.4460124,133.2466698,205 2,,0,,,,
206 1,,松永農協会館前,,34.443522,133.2599989,206 1,,0,,,,
206 2,,松永農協会館前,,34.4437438,133.2598056,206 2,,0,,,,
207 1,,マリンユースセンター入口,,34.3623523,133.2110204,207 1,,0,,,,
208 1,,丸山,,34.4145511,133.2046916,208 1,,0,,,,
209 1,,道越,,34.386617,133.1768744,209 1,,0,,,,
21 1,,歌,,34.4014621,133.2356556,21 1,,0,,,,
210 1,,道輝会前,,34.4092767,133.2202628,210 1,,0,,,,
210 2,,道輝会前,,34.409252,133.2197383,210 2,,0,,,,
211 1,,南高下,,34.4155948,133.1992584,211 1,,0,,,,
211 2,,南高下,,34.4155287,133.1993746,211 2,,0,,,,
212 1,,南松永,,34.4432427,133.2482465,212 1,,0,,,,
212 2,,南松永,,34.4433812,133.2483327,212 2,,0,,,,
213 1,,三成,,34.4535928,133.1930065,213 1,,0,,,,
213 2,,三成,,34.4527417,133.1937107,213 2,,0,,,,
214 1,,宮の鼻,,34.3980124,133.2152953,214 1,,0,,,,
214 2,,宮の鼻,,34.397902,133.2151998,214 2,,0,,,,
215 1,,宮の前,,34.4207418,133.1882484,215 1,,0,,,,
215 2,,宮の前,,34.4206319,133.1883103,215 2,,0,,,,
216 1,,三幸校前,,34.3796582,133.1741735,216 1,,0,,,,
217 1,,御幸橋,,34.3732806,133.1762713,217 1,,0,,,,
218 1,,妙見,,34.4112795,133.1875484,218 1,,0,,,,
218 2,,妙見,,34.4109097,133.1876571,218 2,,0,,,,
219 1,,明神橋,,34.4025112,133.2263734,219 1,,0,,,,
220 1,,向島ＢＳ,,34.3778626,133.1921561,220 1,,0,,,,
220 2,,向島ＢＳ,,34.3770211,133.1915684,220 2,,0,,,,
221 1,,向島大橋,,34.3759294,133.1741629,221 1,,0,,,,
222 1,,向島農協前,,34.3938242,133.1963871,222 1,,0,,,,
222 2,,向島農協前,,34.3939695,133.1962021,222 2,,0,,,,
223 1,,向東小学校前,,34.39936632,133.2208765,223 1,,0,,,,
223 2,,向東小学校前,,34.39929966,133.2208765,223 2,,0,,,,
224 1,,向東農協前,,34.40104951,133.2229263,224 1,,0,,,,
224 2,,向東農協前,,34.4009883,133.2230802,224 2,,0,,,,
225 1,,向峠,,34.4248804,133.1911521,225 1,,0,,,,
225 2,,向峠,,34.4249588,133.1913186,225 2,,0,,,,
227 1,,門田,,34.4231454,133.1801782,227 1,,0,,,,
227 2,,門田,,34.4232292,133.18014,227 2,,0,,,,
228 1,,矢垣内,,34.3861262,133.1977475,228 1,,0,,,,
23 1,,鳥の風呂,,34.41889727,133.2040437,23 1,,0,,,,
230 1,,八坂神社前,,34.388386,133.1793685,230 1,,0,,,,
232 1,,山波,,34.415937,133.2314736,232 1,,0,,,,
232 2,,山波,,34.4156279,133.2315746,232 2,,0,,,,
233 1,,山波郵便局前,,34.4130114,133.23048,233 1,,0,,,,
233 2,,山波郵便局前,,34.4131208,133.2309131,233 2,,0,,,,
234 1,,山本病院前,,34.4380258,133.23103,234 1,,0,,,,
234 2,,山本病院前,,34.4375304,133.231014,234 2,,0,,,,
235 1,,遊亀橋,,34.4574576,133.1835476,235 1,,0,,,,
235 2,,遊亀橋,,34.4575617,133.1834706,235 2,,0,,,,
236 1,,郵便局前,,34.3613122,133.20443,236 1,,0,,,,
237 1,,長和島南,,34.4424412,133.2593293,237 1,,0,,,,
237 2,,長和島南,,34.4425934,133.2593773,237 2,,0,,,,
238 1,,陽光台,,34.4126749,133.1573318,238 1,,0,,,,
238 10,,陽光台,,34.4126727,133.1573425,238 10,,0,,,,
239 1,,陽光台中,,34.41349706,133.159181,239 1,,0,,,,
24 10,,宇和部,,34.2908753,133.1752506,24 10,,0,,,,
24 2,,宇和部,,34.290964,133.1748784,24 2,,0,,,,
241 1,,余崎,,34.3614866,133.2089542,241 1,,0,,,,
242 1,,吉和小前,,34.4015441,133.1712508,242 1,,0,,,,
242 2,,吉和小前,,34.4014252,133.1712047,242 2,,0,,,,
243 1,,向峠南,,34.4236043,133.1928099,243 1,,0,,,,
243 2,,向峠南,,34.4240832,133.1924197,243 2,,0,,,,
244 1,,渡場通り,,34.407785,133.1996509,244 1,,0,,,,1
244 10,,渡場通り,,34.4077839,133.1996389,244 10,,0,,,,
244 2,,渡場通り,,34.4082293,133.2003961,244 2,,0,,,,2
245 1,,渡場通り,,34.4075384,133.2011046,245 1,,0,,,,
245 2,,渡場通り,,34.4072888,133.2008832,245 2,,0,,,,
246 1,,二文堂,,34.3988307,133.2097884,246 1,,0,,,,
246 2,,二文堂,,34.3986725,133.2099097,246 2,,0,,,,
247 1,,ぎおん橋,,34.4016232,133.188379,247 1,,0,,,,
247 2,,ぎおん橋,,34.4017754,133.1884733,247 2,,0,,,,
248 1,,西御所,,34.4025067,133.1909082,248 1,,0,,,,
248 2,,西御所,,34.4026858,133.1909611,248 2,,0,,,,
25 1,,運動公園入口,,34.3289331,133.1541878,25 1,,0,,,,
25 2,,運動公園入口,,34.3289989,133.1540326,25 2,,0,,,,
250 1,,尾商正門前,,34.39794,133.1721284,250 1,,0,,,,
251 1,,平原台北口,,34.4145032,133.1764674,251 1,,0,,,,
251 2,,平原台北口,,34.414355,133.1764291,251 2,,0,,,,
252 1,,デイサービスセンターふぁみりい尾道トッツ本社前,,34.4133829,133.1783495,252 1,,0,,,,
252 2,,デイサービスセンターふぁみりい尾道トッツ本社前,,34.4127408,133.1783235,252 2,,0,,,,
253 1,,みなと小学校（北高入口),北高入口,34.420273,133.1961804,253 1,,0,,,,
253 10,,みなと小学校,北高入口,34.4202582,133.1961909,253 10,,0,,,,
253 2,,みなと小学校（北高入口),北高入口,34.4209861,133.196,253 2,,0,,,,
254 1,,兼吉三丁目（北行),,34.402187,133.2044554,254 1,,0,,,,
256 1,,三美園団地南,,34.4331262,133.2001422,256 1,,0,,,,
256 2,,三美園団地南,,34.4334171,133.1996286,256 2,,0,,,,
259 1,,潮見ヶ浜,,34.3912872,133.230866,259 1,,0,,,,
259 10,,潮見ヶ浜,,34.3912917,133.23086,259 10,,0,,,,
26 1,,江奥,,34.3858313,133.2097922,26 1,,0,,,,
261 1,,ぽっぽの湯前,,34.4095767,133.1784996,261 1,,0,,,,
262 1,,平原市営住宅前,,34.4072807,133.1778728,262 1,,0,,,,
263 1,,ひらはらの郷前,,34.4077497,133.1748382,263 1,,0,,,,
264 1,,平原台一丁目,,34.4097321,133.1748637,264 1,,0,,,,
265 1,,平原台二丁目,,34.4117197,133.1770699,265 1,,0,,,,
28 1,,江の浦,,34.359229,133.1980947,28 1,,0,,,,
28 10,,江の浦,,34.3592301,133.1980839,28 10,,0,,,,
29 1,,尾道市農協前,,34.40158208,133.1827963,29 1,,0,,,,
29 2,,尾道市農協前,,34.4013743,133.1822391,29 2,,0,,,,
299 1,,栗原小学校北,,34.4230844,133.1876709,299 1,,0,,,,
299 2,,栗原小学校北,,34.4235676,133.1882666,299 2,,0,,,,
3 1,,旭ヶ丘団地,,34.4277192,133.2056275,3 1,,0,,,,
3 2,,旭ヶ丘団地,,34.4278024,133.2056904,3 2,,0,,,,
30 1,,黄谷,,34.4255367,133.203205,30 1,,0,,,,
30 2,,黄谷,,34.4254401,133.2033832,30 2,,0,,,,
300 1,,尾道工業団地①番,,34.4454807,133.1828948,300 1,,0,,,,1
300 10,,尾道工業団地,,34.4456792,133.1829019,300 10,,0,,,,
300 2,,尾道工業団地②番,,34.4456792,133.1828961,300 2,,0,,,,2
300 3,,尾道工業団地③番,,34.4459287,133.1828975,300 3,,0,,,,3
301 1,,竹屋口,,34.4301971,133.189553,301 1,,0,,,,
301 2,,竹屋口,,34.4303869,133.1899133,301 2,,0,,,,
303 1,,防災センター前,,34.4269118,133.2353584,303 1,,0,,,,
303 2,,防災センター前,,34.4267495,133.2354834,303 2,,0,,,,
304 1,,尾道東公園前,,34.4289818,133.236525,304 1,,0,,,,
304 2,,尾道東公園前,,34.4291354,133.2367669,304 2,,0,,,,
305 1,,西藤口,,34.447137,133.2398395,305 1,,0,,,,
306 1,,下西消防屯所前,,34.4498838,133.2337115,306 1,,0,,,,
307 1,,下西,,34.4506803,133.2300861,307 1,,0,,,,
308 1,,三成下組,,34.4535891,133.2015687,308 1,,0,,,,
308 2,,三成下組,,34.4538595,133.2021003,308 2,,0,,,,
309 1,,美之郷温泉口,,34.4517951,133.1965649,309 1,,0,,,,
31 1,,大池,,34.4328888,133.1906551,31 1,,0,,,,
31 2,,大池,,34.4324041,133.1906878,31 2,,0,,,,
312 1,,ろうきん尾道支店前,,34.4288079,133.2344893,312 1,,0,,,,
312 2,,ろうきん尾道支店前,,34.4286317,133.2343783,312 2,,0,,,,
32 1,,大迫,,34.4249523,133.1685904,32 1,,0,,,,
322 1,,瀬戸田港,,34.3029177,133.0839293,322 1,,0,,,,
322 10,,瀬戸田港,,34.3029155,133.0839441,322 10,,0,,,,
324 1,,耕三寺,,34.3060117,133.0901888,324 1,,0,,,,
324 10,,耕三寺,,34.3060128,133.0902009,324 10,,0,,,,
325 1,,中野（瀬戸田線),,34.3057892,133.0960445,325 1,,0,,,,
325 10,,中野,,34.3057891,133.0960453,325 10,,0,,,,
327 1,,瀬戸田診療所,,34.3059007,133.1015524,327 1,,0,,,,
327 10,,瀬戸田診療所,,34.3058963,133.1015671,327 10,,0,,,,
329 1,,林公民館,,34.307742,133.1136625,329 1,,0,,,,
329 10,,林公民館,,34.3076755,133.1136766,329 10,,0,,,,
33 1,,大迫団地,,34.4406614,133.1962715,33 1,,0,,,,
33 2,,大迫団地,,34.4407405,133.1963797,33 2,,0,,,,
332 1,,高校前,,34.3111018,133.1260278,332 1,,0,,,,
332 10,,高校前,,34.3111107,133.1260385,332 10,,0,,,,
337 1,,生口橋入口,,34.3043739,133.1467547,337 1,,0,,,,
337 10,,生口橋入口,,34.3043651,133.1467601,337 10,,0,,,,
34 1,,大迫団地上,,34.4390283,133.1967535,34 1,,0,,,,
34 2,,大迫団地上,,34.4385596,133.1969677,34 2,,0,,,,
35 1,,大地,,34.4243702,133.1825497,35 1,,0,,,,
35 2,,大地,,34.4244919,133.1831734,35 2,,0,,,,
36 1,,大新開,,34.4011664,133.2311474,36 1,,0,,,,
37 1,,大田橋,,34.4270716,133.2279429,37 1,,0,,,,
37 2,,大田橋,,34.4256413,133.2277312,37 2,,0,,,,
374 1,,びんご運動公園北門,,34.4394862,133.1796605,374 1,,0,,,,
374 10,,びんご運動公園北門,,34.4394862,133.1796531,374 10,,0,,,,
375 1,,因島重井ＢＳ,,34.3285649,133.153263,375 1,,0,,,,
375 2,,因島重井ＢＳ,,34.3294468,133.1539167,375 2,,0,,,,
376 1,,ＪＡ尾道総合病院,,34.4070468,133.1754968,376 1,,0,,,,
376 10,,ＪＡ尾道総合病院,,34.4070468,133.1754834,376 10,,0,,,,
384 1,,はなぐり霊園,,34.4225311,133.1717192,384 1,,0,,,,
385 1,,向島支所,,34.3956163,133.1982383,385 1,,0,,,,
385 10,,向島支所,,34.3956152,133.1982464,385 10,,0,,,,
386 1,,兼吉南（東行),,34.3993943,133.2054187,386 1,,0,,,,
387 1,,兼吉南（北行),,34.3997688,133.2054033,387 1,,0,,,,
388 1,,大田垣医院前,,34.3987048,133.2059446,388 1,,0,,,,
39 1,,きららラポール前,,34.4313886,133.2016375,39 1,,0,,,,
39 2,,きららラポール前,,34.4313858,133.2017825,39 2,,0,,,,
4 1,,有井,,34.3907474,133.1848362,4 1,,0,,,,
40 1,,奥山,,34.3839056,133.210561,40 1,,0,,,,
40 2,,奥山,,34.3835828,133.2106076,40 2,,0,,,,
41 1,,松岡団地口,,34.4345595,133.1907523,41 1,,0,,,,
41 2,,松岡団地口,,34.4345128,133.1910518,41 2,,0,,,,
412 10,,因島モール前,,34.2966132,133.1663755,412 10,,0,,,,
412 2,,因島モール前,,34.2966132,133.1663594,412 2,,0,,,,
414 10,,松永,,34.4513634,133.2548571,414 10,,0,,,,
42 1,,尾崎,,34.4112861,133.2136628,42 1,,0,,,,
42 2,,尾崎,,34.4111699,133.213413,42 2,,0,,,,
420 1,,尾道流通団地南,,34.439327736574110962826,133.1651959779591066208618,420 1,,0,,,,1
421 1,,尾道流通団地西,,34.441610829298096724444,133.165412521438371602387,421 1,,0,,,,1
422 1,,尾道流通団地東,,34.440727649121779502472,133.1687622840282035933776,422 1,,0,,,,1
422 10,,尾道流通団地東,,34.440710984677027705009,133.1687789499294591085990,422 10,,0,,,,
43 1,,尾商入口,,34.3987884,133.1720274,43 1,,0,,,,
43 2,,尾商入口,,34.3989049,133.1730122,43 2,,0,,,,
44 1,,鬼岩,,34.3189369,133.1461259,44 1,,0,,,,
44 2,,鬼岩,,34.319388,133.145758,44 2,,0,,,,
45 1,,尾道駅前①番,,34.40421531,133.1930286,45 1,,0,,,,1
45 10,,尾道駅前,,34.4042131,133.1930434,45 10,,0,,,,
45 2,,尾道駅前②番,,34.4041052,133.1930985,45 2,,0,,,,2
45 3,,尾道駅前③番,,34.4039941,133.1931665,45 3,,0,,,,3
45 4,,尾道駅前④番,,34.4039898,133.193455,45 4,,0,,,,4
45 5,,尾道駅前⑤番,,34.4040921,133.1935759,45 5,,0,,,,5
45 7,,尾道駅前⑦番,,34.4048075,133.1940486,45 7,,0,,,,7
46 1,,尾道大橋,,34.4050211,133.2125681,46 1,,0,,,,
46 2,,尾道大橋,,34.4049458,133.2123505,46 2,,0,,,,
47 1,,三美園団地西,,34.4342909,133.1966013,47 1,,0,,,,
47 2,,三美園団地西,,34.433727,133.1969522,47 2,,0,,,,
48 1,,尾道造船前,,34.4124023,133.2292783,48 1,,0,,,,
48 2,,尾道造船前,,34.4123512,133.2293896,48 2,,0,,,,
49 1,,尾道市立大学,,34.422599,133.1621872,49 1,,0,,,,
49 10,,尾道市立大学,,34.42272946,133.1622637,49 10,,0,,,,
49 2,,尾道市立大学,,34.422777,133.1623395,49 2,,0,,,,
50 1,,温泉口,,34.4495863,133.1951177,50 1,,0,,,,
50 2,,温泉口,,34.4488476,133.1956888,50 2,,0,,,,
51 1,,海技学院前,,34.4134563,133.196204,51 1,,0,,,,
52 1,,樫原,,34.3881251,133.209731,52 1,,0,,,,
53 1,,流通団地入口,,34.4486118,133.1616255,53 1,,0,,,,
53 2,,流通団地入口,,34.4487047,133.1615961,53 2,,0,,,,
54 10,,要橋,,34.3127267,133.1515756,54 10,,0,,,,
54 2,,要橋,,34.3127256,133.1515622,54 2,,0,,,,
55 10,,金山,,34.3000867,133.1562096,55 10,,0,,,,
55 2,,金山,,34.3001648,133.155997,55 2,,0,,,,
56 1,,神の木,,34.39265015,133.2083612,56 1,,0,,,,
57 1,,亀川,,34.4266486,133.1901855,57 1,,0,,,,1
57 2,,亀川,,34.4264506,133.1902541,57 2,,0,,,,2
57 3,,亀川,,34.4264127,133.1899562,57 3,,0,,,,3
58 1,,兼吉,,34.4044126,133.2029464,58 1,,0,,,,
59 1,,兼吉三丁目（南行),,34.4016979,133.203507,59 1,,0,,,,
6 1,,ハローワーク前,,34.4146184,133.1870576,6 1,,0,,,,
6 2,,ハローワーク前,,34.414022,133.1872978,6 2,,0,,,,
60 1,,川上,,34.4252135,133.1857153,60 1,,0,,,,
60 2,,川上,,34.4253952,133.1865311,60 2,,0,,,,
61 1,,川上口,,34.4254469,133.1873791,61 1,,0,,,,
61 2,,川上口,,34.4256861,133.1877972,61 2,,0,,,,
62 1,,川尻,,34.3917606,133.1975552,62 1,,0,,,,
62 2,,川尻,,34.3908112,133.1978225,62 2,,0,,,,
63 1,,川尻池下,,34.3819599,133.1963742,63 1,,0,,,,
64 1,,ＪＡ産直前,,34.4245161,133.2340558,64 1,,0,,,,
64 2,,ＪＡ産直前,,34.4245396,133.2342784,64 2,,0,,,,
65 1,,木曽病院前,,34.402751,133.1698353,65 1,,0,,,,
65 2,,木曽病院前,,34.4030578,133.1692993,65 2,,0,,,,
66 1,,ぎおん橋,,34.4029192,133.1882044,66 1,,0,,,,
66 2,,ぎおん橋,,34.4025033,133.1870205,66 2,,0,,,,
67 1,,美木原小学校,,34.45049321,133.1654454,67 1,,0,,,,
68 1,,木頃本郷,,34.4539536,133.1743156,68 1,,0,,,,
68 2,,木頃本郷,,34.453345,133.1758049,68 2,,0,,,,
69 1,,北久保,,34.4220775,133.202516,69 1,,0,,,,
69 2,,北久保,,34.4220579,133.2026206,69 2,,0,,,,
7 1,,生きがい推進センター前,,34.423686,133.2100162,7 1,,0,,,,
70 1,,北高入口,,34.419792,133.196174,70 1,,0,,,,1
71 1,,北高前,,34.4186727,133.1953487,71 1,,0,,,,
72 1,,木梨口,,34.4552155,133.1912199,72 1,,0,,,,
72 2,,木梨口,,34.4552428,133.1914955,72 2,,0,,,,
73 1,,玉林寺下,,34.4201126,133.1615032,73 1,,0,,,,
74 1,,切口,,34.3736795,133.1870707,74 1,,0,,,,
75 1,,久保,,34.3733468,133.1822459,75 1,,0,,,,
76 1,,久保三丁目,,34.4103708,133.2079921,76 1,,0,,,,
76 2,,久保三丁目,,34.4103572,133.2083002,76 2,,0,,,,
77 1,,みなと中学校前（旧久保中前),,34.4210452,133.2035914,77 1,,0,,,,
78 1,,組合会館前,,34.4197104,133.2327129,78 1,,0,,,,
78 2,,組合会館前,,34.4195783,133.2326997,78 2,,0,,,,
79 1,,グランド前,,34.4110046,133.193142,79 1,,0,,,,
79 10,,グランド前,,34.4110057,133.1931494,79 10,,0,,,,
8 1,,池尻,,34.3981574,133.217926,8 1,,0,,,,
8 2,,池尻,,34.3980176,133.2178087,8 2,,0,,,,
80 1,,彫刻公園前,,34.4220099,133.2361682,80 1,,0,,,,
80 2,,彫刻公園前,,34.4211865,133.2358622,80 2,,0,,,,
81 1,,栗原一丁目,,34.4094427,133.1895003,81 1,,0,,,,
81 2,,栗原一丁目,,34.4097901,133.1894563,81 2,,0,,,,
82 1,,栗原上,,34.4294635,133.1835758,82 1,,0,,,,
82 2,,栗原上,,34.429495786255564995944,133.184161522209207944447,82 2,,0,,,,
83 1,,栗原中,,34.4303024,133.1863767,83 1,,0,,,,
83 2,,栗原中,,34.430079085011080140927,133.1857780279478624814650,83 2,,0,,,,
84 1,,栗原二丁目,,34.4142183,133.1885281,84 1,,0,,,,
84 2,,栗原二丁目,,34.4139408,133.1886515,84 2,,0,,,,
85 1,,栗原本通り,,34.4119758,133.1888647,85 1,,0,,,,
85 2,,栗原本通り,,34.4121672,133.1889742,85 2,,0,,,,
86 1,,高見小学校前,,34.3785213,133.2181689,86 1,,0,,,,
86 2,,高見小学校前,,34.3784262,133.2181793,86 2,,0,,,,
87 1,,黒瀬団地,,34.4183475,133.1622729,87 1,,0,,,,
88 1,,桑田,,34.4097136,133.2230459,88 1,,0,,,,
88 2,,桑田,,34.4095653,133.2228249,88 2,,0,,,,
9 1,,池の浦,,34.4412924,133.2347017,9 1,,0,,,,
9 2,,池の浦,,34.4412721,133.2344636,9 2,,0,,,,
93 1,,合同庁舎前,,34.3968627,133.1709256,93 1,,0,,,,
94 1,,弘法谷,,34.3816479,133.2122242,94 1,,0,,,,
95 1,,駅前渡船,,34.3991675,133.1975728,95 1,,0,,,,
96 1,,古江口,,34.3952713,133.2329494,96 1,,0,,,,
97 1,,古江浜,,34.3941746,133.2303623,97 1,,0,,,,
98 1,,古江浜団地口,,34.3983078,133.2348551,98 1,,0,,,,
99 1,,小島,,34.3859028,133.1752931,99 1,,0,,,,
