stop_id,stop_code,stop_name,stop_desc,stop_lat,stop_lon,zone_id,stop_url,location_type,parent_station,stop_timezone,wheelchair_boarding,platform_code
1000 1,,玖波分れ,,34.3572802,132.2098017,1000 1,,0,,,,
1000 2,,玖波分れ,,34.3571531,132.2104708,1000 2,,0,,,,
1010 1,,河津,,34.3586081,132.2056314,1010 1,,0,,,,
1010 2,,河津,,34.358715,132.2050509,1010 2,,0,,,,
1020 1,,中山,,34.3615979,132.2000139,1020 1,,0,,,,
1020 2,,中山,,34.3617229,132.1995971,1020 2,,0,,,,
1030 1,,浜本工芸前,,34.3646899,132.1921161,1030 1,,0,,,,
1030 2,,浜本工芸前,,34.3644453,132.1923034,1030 2,,0,,,,
1040 1,,佐伯中学校前,,34.3656455,132.191017,1040 1,,0,,,,
1040 2,,佐伯中学校前,,34.3659685,132.1904116,1040 2,,0,,,,
1050 1,,佐伯高校前,,34.3662219,132.1871682,1050 1,,0,,,,
1050 2,,佐伯高校前,,34.3661094,132.1870532,1050 2,,0,,,,
1060 1,,津田神社,,34.3660031,132.1827449,1060 1,,0,,,,
1060 2,,津田神社,,34.3659295,132.1826476,1060 2,,0,,,,
1070 1,,十王堂,,34.3661481,132.1789462,1070 1,,0,,,,
1070 2,,十王堂,,34.3660493,132.1788884,1070 2,,0,,,,
1075 1,,さいき文化センター,,34.3663406,132.1776747,1075 1,,0,,,,
1075 2,,さいき文化センター,,34.3663406,132.1776746,1075 2,,0,,,,
1080 1,,佐伯支所,,34.3673471,132.1776869,1080 1,,0,,,,
1080 2,,佐伯支所,,34.3671761,132.1777091,1080 2,,0,,,,
1090 1,,津田,,34.3679368,132.1748553,1090 1,,0,,,,
1090 2,,津田,,34.3678848,132.1747374,1090 2,,0,,,,
1100 1,,津田小学校下,,34.368299,132.1731372,1100 1,,0,,,,
1100 2,,津田小学校下,,34.3687232,132.1721564,1100 2,,0,,,,
1110 1,,郷西,,34.3704515,132.1704086,1110 1,,0,,,,
1110 2,,郷西,,34.3704497,132.1704105,1110 2,,0,,,,
1120 1,,内山,,34.37201,132.1650048,1120 1,,0,,,,
1120 2,,内山,,34.3720095,132.1650143,1120 2,,0,,,,
1130 1,,岩倉キャンプ場前,,34.3724053,132.1595391,1130 1,,0,,,,
1130 2,,岩倉キャンプ場前,,34.3722762,132.1595037,1130 2,,0,,,,
1140 1,,下岩倉,,34.3734553,132.1547274,1140 1,,0,,,,
1140 2,,下岩倉,,34.3734612,132.1547253,1140 2,,0,,,,
1150 1,,岩倉,,34.3774436,132.1510164,1150 1,,0,,,,
1150 2,,岩倉,,34.3774628,132.1510245,1150 2,,0,,,,
1160 1,,中栗栖,,34.3766949,132.1438521,1160 1,,0,,,,
1160 2,,中栗栖,,34.3767045,132.1438505,1160 2,,0,,,,
1170 1,,栗栖,,34.3754425,132.1408746,1170 1,,0,,,,
1170 2,,栗栖,,34.3754588,132.1408731,1170 2,,0,,,,
1180 1,,上栗栖,,34.3755201,132.1383523,1180 1,,0,,,,
1180 2,,上栗栖,,34.375523,132.1383529,1180 2,,0,,,,
1190 1,,小瀬川温泉前,,34.3836841,132.1353815,1190 1,,0,,,,
1190 2,,小瀬川温泉前,,34.38368237,132.1353841,1190 2,,0,,,,
1191 1,,北山トンネル,,34.3836571,132.1196999,1191 1,,0,,,,
1191 2,,北山トンネル,,34.3836521,132.1197062,1191 2,,0,,,,
1200 1,,悪谷,,34.3841603,132.114886,1200 1,,0,,,,
1200 2,,悪谷,,34.3841708,132.1148789,1200 2,,0,,,,
1210 1,,羅漢温泉,,34.3889768,132.1054477,1210 1,,0,,,,
1210 2,,羅漢温泉,,34.3889793,132.1054489,1210 2,,0,,,,
1220 1,,出合,,34.3912872,132.1005969,1220 1,,0,,,,
1220 2,,出合,,34.3912909,132.1006145,1220 2,,0,,,,
1230 1,,出合水門口,,34.3943874,132.1031511,1230 1,,0,,,,
1230 2,,出合水門口,,34.3944016,132.1031585,1230 2,,0,,,,
1240 1,,黒打橋,,34.4019801,132.1019761,1240 1,,0,,,,
1240 2,,黒打橋,,34.4019777,132.1019708,1240 2,,0,,,,
1250 1,,下飯山,,34.4158626,132.0886034,1250 1,,0,,,,
1250 2,,下飯山,,34.4158634,132.0886067,1250 2,,0,,,,
1270 1,,冠高原下,,34.4250382,132.0882498,1270 1,,0,,,,
1270 2,,冠高原下,,34.4250373,132.0882557,1270 2,,0,,,,
1280 1,,冠高原入口,,34.43085,132.0886683,1280 1,,0,,,,
1280 2,,冠高原入口,,34.4308522,132.0886677,1280 2,,0,,,,
1290 1,,一軒屋,,34.4478984,132.0941332,1290 1,,0,,,,
1290 2,,一軒屋,,34.4478972,132.0941337,1290 2,,0,,,,
1300 1,,幟町村,,34.4525506,132.0993069,1300 1,,0,,,,
1300 2,,幟町村,,34.4525446,132.0993117,1300 2,,0,,,,
1310 1,,上頓原,,34.4584915,132.1045721,1310 1,,0,,,,
1310 2,,上頓原,,34.4584913,132.1045683,1310 2,,0,,,,
1320 1,,頓原,,34.4608713,132.1072187,1320 1,,0,,,,
1320 2,,頓原,,34.460869,132.1072185,1320 2,,0,,,,
1330 1,,下頓原,,34.4632279,132.1101979,1330 1,,0,,,,
1330 2,,下頓原,,34.4632294,132.1101944,1330 2,,0,,,,
1340 1,,潮原温泉,,34.4670414,132.1147423,1340 1,,0,,,,
1340 2,,潮原温泉,,34.4670407,132.1147406,1340 2,,0,,,,
1350 1,,下潮原,,34.4699443,132.1179746,1350 1,,0,,,,
1350 2,,下潮原,,34.4699412,132.1179758,1350 2,,0,,,,
1360 1,,上中津谷,,34.4727368,132.1180534,1360 1,,0,,,,
1360 2,,上中津谷,,34.4727362,132.118054,1360 2,,0,,,,
1370 1,,匹見分れ,,34.4748646,132.1183571,1370 1,,0,,,,
1370 2,,匹見分れ,,34.4748636,132.1183606,1370 2,,0,,,,
1380 1,,中津谷,,34.477121,132.1207898,1380 1,,0,,,,
1380 2,,中津谷,,34.4771205,132.1207864,1380 2,,0,,,,
1390 1,,大向,,34.4788758,132.1245243,1390 1,,0,,,,
1390 2,,大向,,34.4788731,132.1245269,1390 2,,0,,,,
1400 1,,上花原,,34.4801375,132.1302151,1400 1,,0,,,,
1400 2,,上花原,,34.4801385,132.1302167,1400 2,,0,,,,
1410 1,,花原,,34.4802609,132.1350933,1410 1,,0,,,,
1410 2,,花原,,34.4802614,132.135097,1410 2,,0,,,,
1430 1,,吉和ふれあい交流センター,,34.4841584,132.1434937,1430 1,,0,,,,
1430 2,,吉和ふれあい交流センター,,34.4841556,132.1434957,1430 2,,0,,,,
1440 1,,市垣内,,34.4867059,132.1417311,1440 1,,0,,,,
1440 2,,市垣内,,34.4867074,132.1417327,1440 2,,0,,,,
1450 1,,上田中原,,34.4886905,132.1425514,1450 1,,0,,,,
1450 2,,上田中原,,34.4886909,132.1425511,1450 2,,0,,,,
1460 1,,吉和田中原,,34.4910269,132.1442175,1460 1,,0,,,,
1460 2,,吉和田中原,,34.4910149,132.1442209,1460 2,,0,,,,
1470 1,,田中原地蔵,,34.4928335,132.14529,1470 1,,0,,,,
1470 2,,田中原地蔵,,34.4928338,132.1452913,1470 2,,0,,,,
1471 1,,熊崎,,34.4970044,132.144814,1471 1,,0,,,,
1471 2,,熊崎,,34.49700374,132.1448114,1471 2,,0,,,,
1472 2,,駄荷,,34.5020259,132.145814,1472 2,,0,,,,
1480 1,,下石原,,34.4941022,132.1480707,1480 1,,0,,,,
1480 2,,下石原,,34.4941016,132.1480713,1480 2,,0,,,,
1490 1,,穴が迫,,34.4938612,132.1509687,1490 1,,0,,,,
1490 2,,穴が迫,,34.4938584,132.1509697,1490 2,,0,,,,
1499 1,,友和学校ロータリー,,34.3588745,132.2271196,1499 1,,0,,,,
1499 2,,友和学校ロータリー,,34.3588789,132.2271557,1499 2,,0,,,,
1510 1,,宮園二丁目,,34.3525663,132.3052132,1510 1,,0,,,,
1510 2,,宮園二丁目,,34.3530275,132.305689,1510 2,,0,,,,
1520 1,,宮園八丁目,,34.3509534,132.3028711,1520 1,,0,,,,
1520 2,,宮園八丁目,,34.3507411,132.3030995,1520 2,,0,,,,
19390 2,,宮内河本,,34.3487514,132.3188451,19390 2,,0,,,,
19400 50,,地御前三丁目,,34.342089974573304927149,132.3162376273344178884984,19400 50,,0,,,,
19450 1,,ふじタウン中,,34.3231304,132.3077183,19450 1,,0,,,,
19450 2,,ふじタウン中,,34.3227296,132.3072591,19450 2,,0,,,,
19460 1,,ふじタウン南,,34.322751,132.3111145,19460 1,,0,,,,
19460 2,,ふじタウン南,,34.3227163,132.3109035,19460 2,,0,,,,
200 1,,桜尾,,34.356509,132.3427415,200 1,,0,,,,
200 2,,桜尾,,34.35634,132.3426715,200 2,,0,,,,
2040 1,,下大久保,,34.3646999,132.2294859,2040 1,,0,,,,
2040 2,,下大久保,,34.3646949,132.2294856,2040 2,,0,,,,
2050 1,,大久保,,34.367539,132.2308669,2050 1,,0,,,,
2050 2,,大久保,,34.3675348,132.230867,2050 2,,0,,,,
2060 1,,永原,,34.3714864,132.2345804,2060 1,,0,,,,
2060 2,,永原,,34.3714846,132.2345773,2060 2,,0,,,,
2070 1,,上永原,,34.3740148,132.2354384,2070 1,,0,,,,
2070 2,,上永原,,34.3740151,132.235438,2070 2,,0,,,,
2090 1,,杉の森,,34.3764373,132.2361559,2090 1,,0,,,,
2090 2,,杉の森,,34.3764371,132.2361567,2090 2,,0,,,,
20920 1,,宮園西,,34.3508362,132.3002516,20920 1,,0,,,,
20920 2,,宮園西,,34.3512193,132.3006954,20920 2,,0,,,,
20930 1,,宮園上,,34.3520192,132.2975206,20930 1,,0,,,,
20930 2,,宮園上,,34.3520741,132.2957145,20930 2,,0,,,,
20940 1,,四季が丘一丁目,,34.3507485,132.2947549,20940 1,,0,,,,
20940 2,,四季が丘一丁目,,34.3498251,132.2946109,20940 2,,0,,,,
20950 1,,四季が丘中央,,34.3477591,132.29378,20950 1,,0,,,,
20950 2,,四季が丘中央,,34.3475434,132.2938743,20950 2,,0,,,,
20960 1,,四季が丘南,,34.3452938,132.29505,20960 1,,0,,,,
20960 2,,四季が丘南,,34.3455638,132.294351,20960 2,,0,,,,
20970 1,,四季が丘,,34.3449637,132.2968267,20970 1,,0,,,,
20970 2,,四季が丘,,34.3451683,132.2973586,20970 2,,0,,,,
210 1,,天神,,34.3550136,132.3394707,210 1,,0,,,,
2100 1,,小坂,,34.3796059,132.2375262,2100 1,,0,,,,
2100 2,,小坂,,34.379607,132.2375309,2100 2,,0,,,,
2110 1,,上小坂,,34.3811805,132.2390746,2110 1,,0,,,,
2110 2,,上小坂,,34.3811813,132.2390733,2110 2,,0,,,,
2120 1,,正之原,,34.3855055,132.2410875,2120 1,,0,,,,
2120 2,,正之原,,34.3855034,132.2410897,2120 2,,0,,,,
2130 1,,上正之原,,34.3864804,132.2426375,2130 1,,0,,,,
2130 2,,上正之原,,34.3864844,132.2426429,2130 2,,0,,,,
2140 1,,楢原,,34.3877846,132.2443327,2140 1,,0,,,,
2140 2,,楢原,,34.3877847,132.244332,2140 2,,0,,,,
2150 1,,玖島,,34.3908025,132.2460502,2150 1,,0,,,,
2150 2,,玖島,,34.3908015,132.246047,2150 2,,0,,,,
2155 1,,泉水入口,,34.390716902672579869216,132.2472911142258518494746,2155 1,,0,,,,
2155 2,,泉水入口,,34.390733570583926673728,132.247457765861081667064,2155 2,,0,,,,
2160 1,,玖島花咲く館,,34.391250211321671578608,132.2491576012666679423258,2160 1,,0,,,,
2160 2,,玖島花咲く館,,34.391250211321671578608,132.2491576012666679423258,2160 2,,0,,,,
21770 2,,四季が丘南口,,34.3409907,132.3000506,21770 2,,0,,,,
21770 50,,四季が丘南口,,34.341189782735897653601,132.2997390389511172026426,21770 50,,0,,,,
220 1,,廿日市,,34.3540959,132.3373891,220 1,,0,,,,
220 2,,廿日市,,34.3543645,132.3383906,220 2,,0,,,,
230 1,,榎浦橋,,34.3517347,132.3336063,230 1,,0,,,,
2320 1,,平良大橋,,34.3544999,132.3278922,2320 1,,0,,,,
2320 2,,平良大橋,,34.3547121,132.3278715,2320 2,,0,,,,
23260 1,,田尻,,34.4817156,132.1393842,23260 1,,0,,,,
23260 2,,田尻,,34.4817184,132.1393863,23260 2,,0,,,,
23420 1,,阿品台東小学校,,34.3327706,132.3081133,23420 1,,0,,,,
23420 2,,阿品台東小学校,,34.33235753,132.3073721,23420 2,,0,,,,
23430 2,,阿品台公園前,,34.33114094,132.3044058,23430 2,,0,,,,2
23430 3,,阿品台公園前,,34.3313176,132.3045997,23430 3,,0,,,,3
23440 1,,廿日市西高校前,,34.3260839,132.3046105,23440 1,,0,,,,
23440 2,,廿日市西高校前,,34.3265541,132.3036656,23440 2,,0,,,,
23450 1,,阿品台北中央,,34.33307409,132.3057222,23450 1,,0,,,,
23450 2,,阿品台北中央,,34.3330313,132.305616,23450 2,,0,,,,
23460 1,,阿品台北,,34.3333741,132.3048618,23460 1,,0,,,,
23460 2,,阿品台北,,34.3331978,132.3046537,23460 2,,0,,,,
23480 1,,ふじタウン北,,34.3233986,132.3058321,23480 1,,0,,,,
23480 2,,ふじタウン北,,34.3231119,132.3058959,23480 2,,0,,,,
23670 1,,津田口,,34.3633247,132.1970965,23670 1,,0,,,,
23670 2,,津田口,,34.3632477,132.1970347,23670 2,,0,,,,
23840 1,,ＪＲ阿品駅,,34.3231343,132.314519,23840 1,,0,,,,
23910 1,,日赤看護大学,,34.3346902,132.3096682,23910 1,,0,,,,
23970 1,,新焼山橋,,34.464231,132.1114136,23970 1,,0,,,,
23970 2,,新焼山橋,,34.4642296,132.1114107,23970 2,,0,,,,
2400 1,,スポーツセンター,,34.3534667,132.323765,2400 1,,0,,,,
2400 2,,スポーツセンター,,34.3533313,132.3236921,2400 2,,0,,,,
24020 1,,廿日市市役所,,34.3483328,132.3324832,24020 1,,0,,,,
24020 2,,廿日市市役所,,34.3483919,132.332612,24020 2,,0,,,,
24020 3,,廿日市市役所,,34.3486624,132.3319269,24020 3,,0,,,,
24020 50,,廿日市市役所,,34.348639555782140155257,132.3323693193371206360880,24020 50,,0,,,,
24210 1,,クヴェーレ吉和,,34.4992011,132.1447977,24210 1,,0,,,,
24210 2,,クヴェーレ吉和,,34.4991955,132.1447925,24210 2,,0,,,,
2440 2,,特別支援学校入口,,34.3377553,132.3044658,2440 2,,0,,,,
2450 1,,阿品台一丁目,,34.3300848,132.3146601,2450 1,,0,,,,
2450 2,,阿品台一丁目,,34.33064116,132.3139883,2450 2,,0,,,,
2460 1,,阿品台三丁目,,34.328918,132.3105558,2460 1,,0,,,,
2460 2,,阿品台三丁目,,34.3288905,132.3107376,2460 2,,0,,,,
2470 1,,阿品台四丁目,,34.3294634,132.3086216,2470 1,,0,,,,
2470 2,,阿品台四丁目,,34.3295801,132.3086038,2470 2,,0,,,,
2480 1,,阿品台第六公園,,34.3290556,132.3045547,2480 1,,0,,,,
2480 2,,阿品台第六公園,,34.3291178,132.3039087,2480 2,,0,,,,
24890 1,,ナタリーマリナタウン,,34.3216323,132.3163606,24890 1,,0,,,,
24900 1,,広電阿品駅,,34.3218115,132.3147952,24900 1,,0,,,,
250 1,,宮内分れ,,34.3469698,132.3274851,250 1,,0,,,,
250 11,,宮内分れ,,34.347106306559391431780,132.327803102740405840561,250 11,,0,,,,
250 2,,宮内分れ,,34.3471116,132.3277914,250 2,,0,,,,
250 50,,宮内分れ,,34.347022979148717677110,132.3276197874515305106242,250 50,,0,,,,
25050 1,,一景苑,,34.3749527,132.2988648,25050 1,,0,,,,
25050 2,,一景苑,,34.3749535,132.2988686,25050 2,,0,,,,
25400 0,,陽光台中央,,34.354571877625095170363,132.3107708391811670187608,25400 0,,0,,,,
25400 1,,陽光台中央,,34.3547074,132.3117177,25400 1,,0,,,,
25400 2,,陽光台中央,,34.3544735,132.3109851,25400 2,,0,,,,
260 0,,JA広島総合病院,,34.344039885776379010989,132.3230869680108205777798,260 0,,0,,,,1
260 50,,JA広島総合病院,,34.344039885776379010989,132.3230869680108205777798,260 50,,0,,,,1
2600 1,,広電廿日市駅,,34.357003,132.336816,2600 1,,0,,,,
2610 1,,大東住宅前,,34.3591675,132.3431607,2610 1,,0,,,,
2620 1,,山陽女学園西,,34.3610184,132.3413982,2620 1,,0,,,,
2630 1,,佐方保育園前,,34.3631637,132.3368254,2630 1,,0,,,,
2640 1,,佐方下,,34.3638624,132.3348946,2640 1,,0,,,,
2650 1,,佐方中,,34.3649793,132.3339542,2650 1,,0,,,,
2660 1,,佐方,,34.3667366,132.3336362,2660 1,,0,,,,
2670 1,,佐方上,,34.3676211,132.3346112,2670 1,,0,,,,
2680 1,,月見台団地,,34.369403,132.3356554,2680 1,,0,,,,
2690 1,,緑ヶ丘団地口,,34.368171,132.3369789,2690 1,,0,,,,
2700 1,,屋代,,34.3687344,132.3410255,2700 1,,0,,,,
2710 1,,緑ヶ丘入口,,34.3675632,132.3450543,2710 1,,0,,,,
2720 1,,佐方四丁目東,,34.3662211,132.3442354,2720 1,,0,,,,
2730 1,,佐方四丁目,,34.3652936,132.3421327,2730 1,,0,,,,
2740 1,,山陽女学園北,,34.3632176,132.3400256,2740 1,,0,,,,
2750 1,,山陽女学園前,,34.361305,132.3413526,2750 1,,0,,,,
2770 1,,ＪＲ廿日市駅南口,,34.3579909,132.3360131,2770 1,,0,,,,
280 1,,地御前,,34.34052354,132.3199041,280 1,,0,,,,
280 2,,地御前,,34.33979028,132.3198874,280 2,,0,,,,
2810 1,,野坂中学校南,,34.3415394,132.3146362,2810 1,,0,,,,
2810 2,,野坂中学校南,,34.341606664762631780892,132.314621117190963408811,2810 2,,0,,,,
2820 1,,キラキラ公園,,34.3400173,132.3125109,2820 1,,0,,,,
2820 2,,キラキラ公園,,34.340123453328836086728,132.3125046942890280213594,2820 2,,0,,,,
2830 1,,野坂公園,,34.3406662,132.3100493,2830 1,,0,,,,
2830 2,,野坂公園,,34.340723343418982838096,132.3098882178040377321646,2830 2,,0,,,,
2840 1,,六本松南,,34.3417921,132.306994,2840 1,,0,,,,
2840 2,,六本松南,,34.341889838395955908857,132.3072050536340866551570,2840 2,,0,,,,
2850 1,,六本松北,,34.3427032,132.3063147,2850 1,,0,,,,
2860 1,,宮内一丁目,,34.3497358,132.3146171,2860 1,,0,,,,
2870 1,,峰高一丁目,,34.352939,132.3179906,2870 1,,0,,,,
290 1,,地御前神社,,34.33569072,132.3195043,290 1,,0,,,,
290 2,,地御前神社,,34.33524077,132.3197043,290 2,,0,,,,
3000 1,,ゆめタウン廿日市,,34.3462698,132.3341565,3000 1,,0,,,,
3001 1,,JR廿日市駅北口,,34.3580886,132.3354353,3001 1,,0,,,,
3003 1,,市民活動センター,,34.3503574,132.3364484,3003 1,,0,,,,
3004 1,,宮園上東,,34.3550363,132.2991591,3004 1,,0,,,,
3004 2,,宮園上東,,34.3549804,132.2990994,3004 2,,0,,,,
3005 1,,宮園上北,,34.3542079,132.2968234,3005 1,,0,,,,
3005 2,,宮園上北,,34.3542583,132.2967475,3005 2,,0,,,,
310 1,,阿品東,,34.32697496,132.3181215,310 1,,0,,,,
310 2,,阿品東,,34.3272416,132.3184215,310 2,,0,,,,
4981 2,,廿日市市役所前駅,,34.35243,132.32954,4981 2,,0,,,,
4981 50,,廿日市市役所前駅,,34.352655748660991700093,132.3298526762284250537998,4981 50,,0,,,,
4982 1,,陽光台四丁目,,34.3560697,132.3083264,4982 1,,0,,,,
4982 2,,陽光台四丁目,,34.3561061,132.3087669,4982 2,,0,,,,
4983 1,,あいプラザ,,34.350821,132.3308449,4983 1,,0,,,,
4983 2,,あいプラザ,,34.3509147,132.3309642,4983 2,,0,,,,
4983 50,,あいプラザ,,34.350855957015686262436,132.330752684825080421289,4983 50,,0,,,,
5020 1,,中平良,,34.3557366,132.3181669,5020 1,,0,,,,
5020 2,,中平良,,34.3558618,132.3170632,5020 2,,0,,,,
5030 1,,堂河内,,34.3573943,132.3127438,5030 1,,0,,,,
5030 2,,堂河内,,34.3576708,132.3114451,5030 2,,0,,,,
5040 1,,速谷神社,,34.3582139,132.3109641,5040 1,,0,,,,
5040 2,,速谷神社,,34.3589047,132.309769,5040 2,,0,,,,
5050 1,,西蓮寺,,34.3609523,132.3094594,5050 1,,0,,,,
5050 2,,西蓮寺,,34.3610223,132.3092406,5050 2,,0,,,,
5060 1,,下大島,,34.3629708,132.3088043,5060 1,,0,,,,
5060 2,,下大島,,34.3629664,132.3088007,5060 2,,0,,,,
5070 1,,河野原,,34.366333,132.309084,5070 1,,0,,,,
5070 2,,河野原,,34.3663374,132.3090848,5070 2,,0,,,,
5080 1,,原住宅入口,,34.3678227,132.3071366,5080 1,,0,,,,
5080 2,,原住宅入口,,34.3678515,132.3065876,5080 2,,0,,,,
5090 1,,原小学校前,,34.3687658,132.3043787,5090 1,,0,,,,
5090 2,,原小学校前,,34.368767,132.3043725,5090 2,,0,,,,
5100 1,,原小学校上,,34.3699005,132.3019573,5100 1,,0,,,,
5100 2,,原小学校上,,34.3699014,132.3019657,5100 2,,0,,,,
5110 1,,国実,,34.373242,132.2990112,5110 1,,0,,,,
5110 2,,国実,,34.3732441,132.2990176,5110 2,,0,,,,
5120 1,,下川末,,34.3764647,132.296322,5120 1,,0,,,,
5120 2,,下川末,,34.376538,132.2958883,5120 2,,0,,,,
5130 1,,川末,,34.3785271,132.2928061,5130 1,,0,,,,
5130 2,,川末,,34.37853567,132.2928046,5130 2,,0,,,,
740 1,,宮内,,34.3470232,132.3246272,740 1,,0,,,,
750 2,,宮内串戸駅,,34.348219,132.3235921,750 2,,0,,,,2
750 50,,宮内串戸駅,,34.348406090767581628932,132.3234034082382054243446,750 50,,0,,,,2
772 1,,宮内郵便局,,34.3481057,132.3107006,772 1,,0,,,,
772 2,,宮内郵便局,,34.3472668,132.3095679,772 2,,0,,,,
780 1,,宮内農協,,34.3461519,132.3076476,780 1,,0,,,,
780 2,,宮内農協,,34.3461267,132.3077802,780 2,,0,,,,
790 1,,六本松口,,34.3446867,132.305402,790 1,,0,,,,
790 2,,六本松口,,34.34505615,132.3061717,790 2,,0,,,,
800 2,,佐原田,,34.3426252,132.3024183,800 2,,0,,,,
800 50,,佐原田,,34.342673005786155359118,132.302505407322136317407,800 50,,0,,,,
940 1,,玖島分れ,,34.3594542,132.2290255,940 1,,0,,,,
940 2,,玖島分れ,,34.3592701,132.2288037,940 2,,0,,,,
950 1,,友和学校,,34.3588389,132.2271282,950 1,,0,,,,
950 2,,友和学校,,34.3582955,132.226184,950 2,,0,,,,
960 1,,友和岩組分れ,,34.3584523,132.2212658,960 1,,0,,,,
960 2,,友和岩組分れ,,34.3583878,132.221267,960 2,,0,,,,
970 1,,友和公民館前,,34.3583631,132.2196707,970 1,,0,,,,
970 2,,友和公民館前,,34.3582899,132.2193883,970 2,,0,,,,
980 1,,友和郵便局,,34.358268,132.2176232,980 1,,0,,,,
980 2,,友和郵便局,,34.3582295,132.2182936,980 2,,0,,,,
990 1,,友田,,34.35756987,132.2142287,990 1,,0,,,,
990 2,,友田,,34.3574843,132.2141134,990 2,,0,,,,
99104 1,,上川末,,34.380801996714097905773,132.2874049060490220303436,99104 1,,0,,,,
99104 2,,上川末,,34.380968645027155103381,132.2873382367792314881714,99104 2,,0,,,,
99105 1,,半明原橋,,34.372686518171645113806,132.3057037598042204059844,99105 1,,0,,,,
99105 2,,半明原橋,,34.372453208586684090129,132.3056371094796170693900,99105 2,,0,,,,
99106 1,,原市民センター,,34.370136782001561532927,132.3051872532706784599734,99106 1,,0,,,,
99106 2,,原市民センター,,34.370153450379167385488,132.305387236233750279239,99106 2,,0,,,,
99108 1,,飯山集会所,,34.418294497364031984237,132.0876531022233184871756,99108 1,,0,,,,
99108 2,,飯山集会所,,34.418177848922577208824,132.0879530826594969007294,99108 2,,0,,,,
99109 1,,飯山中,,34.419177741548822534234,132.0879530366215164116338,99109 1,,0,,,,
99109 2,,飯山中,,34.419544370371061242637,132.0880363459426878638756,99109 2,,0,,,,
99110 1,,吉和福祉センター,,34.485204962706713695734,132.1423288134187788978976,99110 1,,0,,,,
99110 2,,吉和福祉センター,,34.485438269672079522011,132.1422454764748093976670,99110 2,,0,,,,
99111 1,,石原集会所,,34.49065456375155079100,132.152861021146078645684,99111 1,,0,,,,
99111 2,,石原集会所,,34.490371270463633842492,132.1534109883895328511778,99111 2,,0,,,,
99112 1,,石原,,34.493237640933942174799,132.1540108065461402414716,99112 1,,0,,,,
99112 2,,石原,,34.493104323152003388601,132.1540774742812956627882,99112 2,,0,,,,
99113 1,,妙音寺原,,34.487304833182231821322,132.1477615991206498321252,99113 1,,0,,,,
99113 2,,妙音寺原,,34.487121524962800400182,132.1480782478940039758088,99113 2,,0,,,,
99119 1,,陽光台第三公園,,34.356071696269793820628,132.3095708698607587400988,99119 1,,0,,,,
99119 2,,陽光台第三公園,,34.356055030104749995691,132.3095042100912148098032,99119 2,,0,,,,
99120 80,,ゆめタウン廿日市,,34.346256507295014270330,132.3340526225889466239844,99120 80,,0,,,,
